City_ID,City,Lat,Lng,Max Temp,Humidity,Cloudiness,Wind Speed,Country,Date
0,callao,-12.0667,-77.15,22.16,83,0,6.69,PE,1737591704
1,carolina beach,34.0352,-77.8936,-2.74,66,99,5.69,US,1737591706
2,suong,11.9115,105.6533,20.65,55,100,0.61,KH,1737591707
3,lebu,-37.6167,-73.65,15.25,83,33,0.76,CL,1737591450
4,adamstown,-25.066,-130.1015,25.02,79,8,3.85,PN,1737591709
5,utrik,11.2278,169.8474,26.4,78,49,9.66,MH,1737591710
6,uturoa,-16.7333,-151.4333,27.65,77,29,6.79,PF,1737591711
7,cold lake,54.4502,-110.2017,-6.03,86,75,3.09,CA,1737591713
8,ilulissat,69.2167,-51.1,-3.99,80,40,3.6,GL,1737591714
9,carnarvon,-24.8667,113.6333,26.44,83,100,2.79,AU,1737591715
10,flying fish cove,-10.4217,105.6791,24.82,94,75,2.57,CX,1737591716
11,port augusta,-32.5,137.7667,26.03,47,97,5.31,AU,1737591717
12,port-aux-francais,-49.35,70.2167,5.19,77,59,15.13,TF,1737591719
13,punta del este,-34.9667,-54.95,23.06,94,0,3.13,UY,1737591720
14,sandnessjoen,66.0217,12.6316,-6.94,79,40,4.12,NO,1737591721
15,grytviken,-54.2811,-36.5092,0.68,73,20,5.2,GS,1737591723
16,berbera,10.4396,45.0143,21.99,80,3,2.55,SO,1737591724
17,albany,42.6001,-73.9662,-10.67,60,67,1.99,US,1737591725
18,mildura,-34.2,142.15,21.15,47,99,3.66,AU,1737591726
19,wailua homesteads,22.0669,-159.378,24.44,62,20,6.17,US,1737591727
20,blackmans bay,-43.0167,147.3167,15.41,56,86,1.34,AU,1737591728
21,xiuyan,40.2928,123.2744,-5.39,42,1,1.16,CN,1737591730
22,hadibu,12.65,54.0333,22.26,68,20,6.58,YE,1737591731
23,edinburgh of the seven seas,-37.0676,-12.3116,17.35,85,100,0.45,SH,1737591732
24,koungheul,13.9833,-14.8,24.13,12,4,4.66,SN,1737591733
25,n'dalatando,-9.2978,14.9116,18.88,99,93,1.0,AO,1737591734
26,nuku'alofa,-21.1333,-175.2,28.19,94,75,1.54,TO,1737591736
27,mamadysh,55.7152,51.408,-19.44,84,93,3.12,RU,1737591737
28,queenstown,-31.8976,26.8753,17.54,77,16,2.05,ZA,1737591738
29,hithadhoo,-0.6,73.0833,27.47,73,99,5.44,MV,1737591552
30,fort bragg,35.139,-79.006,-3.09,54,0,0.0,US,1737591740
31,kargopol',61.5071,38.9456,-5.73,94,100,4.14,RU,1737591742
32,ribeira grande,38.5167,-28.7,15.99,77,20,4.47,PT,1737591743
33,mossel bay,-34.1831,22.146,18.96,87,98,0.37,ZA,1737591745
34,tvoroyri,61.5556,-6.8111,5.57,84,100,10.09,FO,1737591746
35,anadyr,64.75,177.4833,-12.72,85,75,11.0,RU,1737591747
36,cutral-co,-38.9469,-69.2089,28.12,11,47,11.62,AR,1737591748
37,bredasdorp,-34.5322,20.0403,20.59,94,85,1.2,ZA,1737591749
38,papatowai,-46.5619,169.4708,11.79,96,100,5.89,NZ,1737591751
39,calama,-22.4667,-68.9333,18.27,24,0,10.29,CL,1737591521
40,vredendal,-31.6683,18.5012,18.28,95,51,2.8,ZA,1737591753
41,at taj,24.2049,23.2857,12.92,54,0,4.4,LY,1737591754
42,damavand,35.7178,52.065,-3.44,54,1,2.21,IR,1737591755
43,quellon,-43.1167,-73.6167,12.77,98,100,5.32,CL,1737591757
44,novyy urengoy,66.0833,76.6333,-27.4,96,89,7.82,RU,1737591758
45,kindu,-2.95,25.95,21.09,99,94,1.24,CD,1737591759
46,nieuw amsterdam,5.8833,-55.0833,25.01,94,40,0.0,SR,1737591760
47,walvis bay,-22.9575,14.5053,19.22,90,81,1.49,NA,1737591761
48,dolbeau-mistassini,48.8763,-72.212,-23.74,94,56,1.01,CA,1737591762
49,bilibino,68.0546,166.4372,-30.39,98,100,0.87,RU,1737591763
50,rongelap,11.1635,166.8941,26.81,75,51,9.76,MH,1737591755
51,bethel,41.3712,-73.414,-9.1,57,0,2.06,US,1737591754
52,afaahiti,-17.75,-149.2833,26.5,79,61,6.89,PF,1737591767
53,nishinoomote,30.7333,131.0,14.31,88,75,1.03,JP,1737591768
54,punta arenas,-53.15,-70.9167,15.06,72,0,3.09,CL,1737591769
55,cidade velha,14.9167,-23.6167,21.26,68,40,6.69,CV,1737591770
56,ushuaia,-54.8,-68.3,14.81,58,20,8.23,AR,1737591721
57,cabo san lucas,22.8909,-109.9124,22.17,60,0,4.12,MX,1737591711
58,codrington,-38.2667,141.9667,16.56,60,100,3.84,AU,1737591773
59,happy valley-goose bay,53.3168,-60.3315,-23.83,64,20,6.69,CA,1737591775
60,west island,-12.1568,96.8225,26.99,69,75,2.57,CC,1737591776
61,saint-francois,46.4154,3.9054,12.04,68,0,4.12,FR,1737591777
62,boa vista,2.8197,-60.6733,27.99,61,20,2.06,BR,1737591778
63,las tablas,7.7667,-80.2833,26.21,99,3,5.76,PA,1737591779
64,port macquarie,-31.4333,152.9167,26.71,70,68,0.89,AU,1737591780
65,tadine,-21.55,167.8833,26.5,70,100,1.93,NC,1737591782
66,san juan de miraflores,-12.1629,-76.9635,21.29,85,80,3.57,PE,1737591783
67,longyearbyen,78.2186,15.6401,-8.09,86,75,3.09,SJ,1737591784
68,avarua,-21.2078,-159.775,29.03,84,20,3.6,CK,1737591785
69,ataq,14.5377,46.8319,15.02,47,9,2.21,YE,1737591787
70,waitangi,-43.9535,-176.5597,17.12,94,100,5.36,NZ,1737591788
71,safford,32.834,-109.7076,12.51,9,0,4.63,US,1737591790
72,mana,5.6592,-53.7767,24.85,89,83,4.87,GF,1737591791
73,inhambane,-23.865,35.3833,25.67,88,42,5.56,MZ,1737591792
74,sitka,57.0531,-135.33,5.94,81,75,5.66,US,1737591793
75,wangqing,43.3218,129.7634,-12.01,84,6,1.03,CN,1737591794
76,kirkland lake,48.1446,-80.0377,-11.84,79,100,4.63,CA,1737591796
77,kailua-kona,19.6406,-155.9956,26.98,68,40,5.14,US,1737591797
78,moranbah,-22.0016,148.0466,33.05,45,100,5.15,AU,1737591798
79,tharangambadi,11.0319,79.8528,24.15,77,99,3.79,IN,1737591799
80,ust-nera,64.5667,143.2,-32.81,100,100,1.1,RU,1737591800
81,port elizabeth,-33.918,25.5701,22.16,99,0,6.17,ZA,1737591801
82,haiku-pauwela,20.9219,-156.3051,24.03,73,20,9.77,US,1737591803
83,invercargill,-46.4,168.35,12.79,96,100,6.71,NZ,1737591753
84,kone,-21.0595,164.8658,27.8,50,100,1.85,NC,1737591805
85,fauske,67.2588,15.3918,-14.79,85,14,2.74,NO,1737591806
86,yellowknife,62.456,-114.3525,-9.77,100,75,7.2,CA,1737591808
87,college,64.8569,-147.8028,-7.74,92,75,0.0,US,1737591809
88,qaqortoq,60.7167,-46.0333,-12.0,92,100,1.64,GL,1737591764
89,tosontsengel,48.7567,98.2839,-22.47,90,9,1.12,MN,1737591812
90,nikolayevsk-on-amure,53.1406,140.73,-16.33,96,67,1.67,RU,1737591814
91,tiksi,71.6872,128.8694,-37.37,98,92,3.68,RU,1737591815
92,al ghayzah,16.2079,52.176,18.74,33,0,4.14,YE,1737591816
93,isafjordur,66.0755,-23.124,-3.81,72,17,3.32,IS,1737591818
94,severo-yeniseyskiy,60.3725,93.0408,-13.81,89,91,7.2,RU,1737591819
95,flekkefjord,58.2971,6.6607,0.2,97,100,2.39,NO,1737591820
96,talnakh,69.4865,88.3972,-39.33,95,22,1.96,RU,1737591821
97,north bend,43.4065,-124.2243,13.48,44,0,4.12,US,1737591823
98,st. john's,47.5649,-52.7093,-8.9,67,100,7.2,CA,1737591824
99,ulsteinvik,62.3432,5.8487,4.62,93,6,2.86,NO,1737591825
100,el ejido,36.7763,-2.8146,16.06,38,6,4.07,ES,1737591826
101,island harbour,50.724,-1.2758,2.74,64,95,4.18,GB,1737591827
102,puerto natales,-51.7236,-72.4875,10.87,93,100,2.04,CL,1737591829
103,stanley,54.868,-1.6985,0.29,93,20,1.54,GB,1737591830
104,crieff,56.3727,-3.8389,2.09,88,98,1.16,GB,1737591713
105,vermillion,42.7794,-96.9292,-2.58,82,96,5.17,US,1737591833
106,buka,40.8108,69.1986,-2.17,73,100,2.73,UZ,1737591834
107,klyuchi,52.2667,79.1667,-19.15,92,100,7.03,RU,1737591835
108,puerto ayora,-0.7393,-90.3518,24.75,92,65,2.24,EC,1737591836
109,hailar,49.2,119.7,-31.33,100,90,1.58,CN,1737591837
110,ploudalmezeau,48.5333,-4.65,3.21,100,20,1.54,FR,1737591838
111,sinabang,2.4803,96.3801,25.52,83,100,0.92,ID,1737591839
112,aswan,24.0934,32.907,18.61,29,0,2.06,EG,1737591630
113,port lincoln,-34.7333,135.8667,19.24,62,100,7.88,AU,1737591842
114,port mathurin,-19.6833,63.4167,25.94,78,23,6.22,MU,1737591843
115,nova vicosa,-17.8919,-39.3719,26.06,87,0,4.3,BR,1737591844
116,margate,51.3813,1.3862,2.61,88,83,0.45,GB,1737591845
117,hasaki,35.7333,140.8333,11.73,49,84,4.44,JP,1737591846
118,crane,31.3974,-102.3501,9.2,19,68,2.6,US,1737591847
119,susuman,62.7833,148.1667,-44.22,100,89,0.25,RU,1737591850
120,aoulef,26.9667,1.0833,18.57,13,75,2.69,DZ,1737591851
121,jamestown,42.097,-79.2353,-11.66,50,100,7.2,US,1737591755
122,nizhneangarsk,55.7833,109.55,-13.82,86,42,1.83,RU,1737591853
123,ola,59.5833,151.2833,-25.18,82,1,2.26,RU,1737591854
124,keflavik,64.0049,-22.5624,3.24,65,20,13.89,IS,1737591856
125,koulikoro,14.0,-7.75,21.13,16,1,2.48,ML,1737591858
126,arquitecto tomas romero pereira,-26.4833,-55.25,29.17,49,40,1.69,PY,1737591860
127,mount isa,-20.7333,139.5,35.87,38,79,4.12,AU,1737591861
128,amga,60.8953,131.9608,-12.47,92,100,2.5,RU,1737591862
129,fale old settlement,-9.3852,-171.2468,27.94,76,9,6.24,TK,1737591864
130,tromso,69.6496,18.957,-5.99,79,100,9.26,NO,1737591865
131,gizo,-8.103,156.8419,29.81,71,98,5.13,SB,1737591866
132,guarapari,-20.6667,-40.4975,24.82,92,0,4.35,BR,1737591867
133,atafu village,-8.5421,-172.5159,28.43,71,27,6.92,TK,1737591868
134,kourou,5.1552,-52.6478,23.76,94,100,3.1,GF,1737591869
135,makarov,48.6333,142.8,-7.91,91,33,0.54,RU,1737591870
136,touros,-5.1989,-35.4608,26.74,71,1,5.39,BR,1737591873
137,atar,20.5169,-13.0499,19.04,14,74,1.64,MR,1737591874
138,thompson,55.7435,-97.8558,-20.91,65,75,5.66,CA,1737591875
139,korsakov,46.6328,142.7813,-7.09,85,100,1.43,RU,1737591876
140,kodiak,57.79,-152.4072,4.73,60,0,4.63,US,1737591877
141,jinxiang,27.4327,120.6062,13.37,87,100,3.04,CN,1737591878
142,nuuk,64.1835,-51.7216,-6.66,79,100,1.03,GL,1737591879
143,rovaniemi,66.5,25.7167,-16.33,92,0,2.06,FI,1737591881
144,nogliki,51.8333,143.1667,-15.03,90,0,2.86,RU,1737591882
145,tofol,5.3248,163.0078,28.88,79,75,6.69,FM,1737591883
146,bhamo,24.2667,97.2333,13.94,74,8,0.36,MM,1737591884
147,page,36.9147,-111.4558,3.95,21,0,1.54,US,1737591837
148,praia da vitoria,38.7333,-27.0667,11.14,87,20,3.35,PT,1737591886
149,aykhal,66.0,111.5,-17.92,98,100,1.98,RU,1737591881
150,pala,9.3642,14.9046,23.96,16,12,3.26,TD,1737591888
151,bardai,11.65,7.2333,19.39,26,33,4.27,NG,1737591889
152,seminole,28.7086,-81.2081,5.79,98,100,6.17,US,1737591890
153,shumerlya,55.5005,46.4129,-9.86,83,100,5.21,RU,1737591892
154,iqaluit,63.7506,-68.5145,-14.15,72,75,7.72,CA,1737591893
155,essaouira,31.5125,-9.77,15.72,82,18,2.57,MA,1737591894
156,kapa'a,22.0752,-159.319,25.18,62,20,6.17,US,1737591895
157,el granada,37.5027,-122.4694,17.4,60,0,5.14,US,1737591896
158,bandon,51.7469,-8.7425,4.77,94,55,3.57,IE,1737591897
159,rovnoye,50.7765,46.0509,-9.56,62,98,4.86,RU,1737591899
160,nicoya,10.1483,-85.452,25.36,70,1,7.04,CR,1737591900
161,whitehorse,60.7161,-135.0538,-3.57,79,40,1.54,CA,1737591901
162,neelankarai,12.9455,80.2575,23.39,93,40,1.03,IN,1737591902
163,puerto francisco de orellana,-0.4667,-76.9667,25.21,63,30,0.76,EC,1737591903
164,tazacorte,28.629,-17.9293,15.54,67,0,3.6,ES,1737591904
165,mizdah,31.4451,12.9801,11.64,31,41,2.07,LY,1737591905
166,westport,41.1415,-73.3579,-8.13,54,0,2.06,US,1737591906
167,kartaly,53.0522,60.6467,-20.36,83,5,4.91,RU,1737591907
168,robit,12.0167,39.6333,15.22,56,14,0.78,ET,1737591909
169,cannonvale,-20.2833,148.7,29.66,67,61,3.39,AU,1737591910
170,moyale,3.5167,39.0584,20.38,46,9,3.2,KE,1737591911
171,badger,64.8,-147.5333,-7.79,90,75,0.0,US,1737591912
172,christchurch,-43.5333,172.6333,23.3,73,31,6.69,NZ,1737591323
173,mount gambier,-37.8333,140.7667,16.27,58,100,3.49,AU,1737591858
174,olonkinbyen,70.9221,-8.7187,-1.97,89,96,8.36,SJ,1737591915
175,malanje,-9.5402,16.341,16.73,97,92,1.79,AO,1737591917
176,dudinka,69.4058,86.1778,-32.82,85,6,8.64,RU,1737591919
177,margaret river,-33.95,115.0667,23.22,59,100,4.13,AU,1737591920
178,kingston,17.997,-76.7936,27.53,57,20,6.69,JM,1737591844
179,hermanus,-34.4187,19.2345,20.45,74,100,0.38,ZA,1737591922
180,east london,-33.0153,27.9116,23.23,88,86,7.89,ZA,1737591923
181,toliara,-23.35,43.6667,25.52,79,58,2.26,MG,1737591806
182,natal,-5.795,-35.2094,27.12,78,20,4.63,BR,1737591889
183,salekhard,66.53,66.6019,-30.2,91,28,2.64,RU,1737591855
184,aasiaat,68.7098,-52.8699,-6.86,89,90,5.17,GL,1737591928
185,dapa,9.7594,126.0531,26.93,83,99,3.79,PH,1737591929
186,razole,16.4833,81.8333,16.85,99,7,1.3,IN,1737591930
187,chernyshevskiy,63.0128,112.4714,-12.82,99,95,2.43,RU,1737591931
188,homosassa springs,28.8036,-82.5759,5.13,78,100,2.57,US,1737591932
189,newman,37.3138,-121.0208,15.58,42,0,0.89,US,1737591933
190,colonia,50.9333,6.95,4.58,94,75,4.12,DE,1737591934
191,molochnyy,68.8539,33.0205,-21.69,77,0,0.0,RU,1737591935
192,lamu,-2.2717,40.902,24.14,90,100,3.7,KE,1737591936
193,ares,-6.1944,-35.1603,27.34,64,63,4.09,BR,1737591937
194,charters towers,-20.1,146.2667,31.82,48,91,3.78,AU,1737591939
195,new carlisle,39.9362,-84.0255,-9.14,57,0,4.12,US,1737591940
196,bonthe,7.5264,-12.505,25.39,77,24,3.5,SL,1737591941
197,nar'yan-mar,67.6713,53.087,-19.41,96,98,4.55,RU,1737591777
198,northam,51.0333,-4.2167,3.78,96,11,0.89,GB,1737591943
199,udachny,66.4167,112.4,-20.64,98,100,1.67,RU,1737591855
200,wamba,8.9333,8.6,23.9,19,2,2.31,NG,1737591945
201,pointe-du-lac,46.2869,-72.6845,-12.05,57,100,4.12,CA,1737591947
202,uzundere,40.5301,41.5584,-1.2,74,100,2.27,TR,1737591948
203,fuglafjordur,62.244,-6.814,4.2,79,91,7.38,FO,1737591949
204,hamilton,39.1834,-84.5333,-6.46,51,40,4.47,US,1737591871
205,broome,42.2506,-75.833,-10.24,49,100,4.12,US,1737591951
206,hakkari,37.5833,44.1667,-13.12,92,75,0.51,TR,1737591952
207,ullal,12.8,74.85,23.53,88,20,1.54,IN,1737591953
208,simanggang,1.2472,111.4528,23.99,94,20,0.51,MY,1737591954
209,yuzhno-kurilsk,44.0306,145.8556,-0.51,79,80,3.49,RU,1737591956
210,hawaiian paradise park,19.5933,-154.9731,28.26,61,0,4.12,US,1737591957
211,saipan,15.1355,145.701,31.39,73,40,9.26,MP,1737591845
212,kogalym,62.2654,74.4791,-26.56,86,100,11.3,RU,1737591959
213,kaga bandoro,6.9896,19.1874,25.82,24,60,1.31,CF,1737591832
214,rujewa,-8.7,34.3833,18.17,95,100,0.79,TZ,1737591961
215,gaspe,48.8334,-64.4819,-16.88,55,0,3.6,CA,1737591962
216,richards bay,-28.783,32.0377,22.41,93,95,2.55,ZA,1737591688
217,belmonte,-15.8631,-38.8828,25.91,87,0,3.82,BR,1737591965
218,palo santo,-25.5633,-59.3378,31.24,40,22,1.4,AR,1737591966
219,sambava,-14.2667,50.1667,23.72,90,62,2.32,MG,1737591967
220,fomboni,-12.28,43.7425,28.26,77,89,4.26,KM,1737591968
221,nemuro,43.3236,145.575,0.36,77,53,3.08,JP,1737591969
222,binh long,11.6512,106.6071,20.5,83,100,0.3,VN,1737591970
223,antofagasta,-23.65,-70.4,21.6,79,11,0.92,CL,1737591723
224,san pedro pochutla,15.7333,-96.4667,27.84,53,4,2.48,MX,1737591972
225,nambucca heads,-30.65,153.0,23.55,73,79,3.64,AU,1737591973
226,kamennomostskiy,44.2983,40.1856,2.32,86,100,1.65,RU,1737591976
227,mount pearl,47.5166,-52.7813,-9.36,68,100,7.2,CA,1737591977
228,balabac,7.9868,117.0645,27.0,82,100,5.83,PH,1737591978
229,iskateley,67.6803,53.1512,-19.45,96,99,4.54,RU,1737591979
230,pariaman,-0.619,100.12,25.03,85,100,1.91,ID,1737591980
231,maharajgani,26.1167,84.4833,11.63,65,0,0.86,IN,1737591981
232,antsiranana,-12.2787,49.2917,23.77,88,93,1.76,MG,1737591983
233,ginir,7.1333,40.7,13.66,21,61,2.1,ET,1737591984
234,palmares do sul,-30.2578,-50.5097,23.62,82,0,5.33,BR,1737591985
235,nyurba,63.2842,118.3319,-7.9,95,96,3.03,RU,1737591986
236,padre paraiso,-17.0742,-41.4844,23.53,75,91,1.54,BR,1737591987
237,post,33.1909,-101.3782,8.87,25,2,5.25,US,1737591988
238,tindouf,27.6711,-8.1474,14.05,20,0,3.01,DZ,1737591989
239,ancud,-41.8697,-73.8203,13.28,96,100,6.93,CL,1737591990
240,comandante fontana,-25.3345,-59.6821,30.94,44,47,2.48,AR,1737591992
241,corning,42.1428,-77.0547,-9.41,47,100,0.45,US,1737591993
242,avsallar,36.616,31.7806,12.03,83,100,1.86,TR,1737591994
243,qarazhal,48.0078,70.7903,-27.73,97,80,4.2,KZ,1737591995
244,ta`u,-14.2336,-169.5144,28.06,78,16,7.71,AS,1737591996
245,linxia chengguanzhen,35.6003,103.2064,-2.75,59,70,0.19,CN,1737591998
246,vila do maio,15.1333,-23.2167,22.06,69,23,8.83,CV,1737591999
247,lingig,8.0389,126.4125,25.55,82,97,0.5,PH,1737592001
248,kokemaki,61.2565,22.3564,-5.3,99,89,0.72,FI,1737592002
249,villamontes,-21.25,-63.5,22.47,79,86,1.89,BO,1737592003
250,vytegra,61.0064,36.4481,-3.52,91,100,4.3,RU,1737592004
251,papao,-17.75,-149.55,30.82,77,41,7.06,PF,1737592006
252,kapuskasing,49.4169,-82.4331,-13.0,85,100,2.06,CA,1737591721
253,westerland,54.9079,8.3033,2.01,100,100,4.63,DE,1737592008
254,kyelang,32.5833,77.0333,-17.07,98,46,0.86,IN,1737592009
255,yen vinh,18.6667,105.6667,15.86,96,77,1.5,VN,1737592010
256,camocim,-2.9022,-40.8411,25.89,82,19,5.4,BR,1737592011
257,san patricio,28.017,-97.5169,8.97,70,77,3.07,US,1737592013
258,hami,42.8,93.45,-5.4,49,56,2.74,CN,1737591912
259,kenai,60.5544,-151.2583,4.45,87,75,8.75,US,1737592015
260,bel ombre,-4.6167,55.4167,27.57,76,97,8.13,SC,1737592016
261,remire-montjoly,4.9167,-52.2667,24.02,94,75,1.03,GF,1737591839
262,gunnison,38.7,-107.0673,-12.53,87,86,2.34,US,1737592019
263,proletarsk,46.7031,41.7192,-1.36,67,100,10.25,RU,1737592020
264,vilyuchinsk,52.9306,158.4028,-8.85,84,16,3.58,RU,1737592021
265,gadzhiyevo,69.2551,33.3362,-13.84,96,99,3.58,RU,1737592022
266,tolanaro,-25.0319,46.9987,25.04,83,75,6.17,MG,1737592023
267,magistral'nyy,56.1725,107.4458,-12.43,86,38,2.94,RU,1737592025
268,zhengjiatun,43.5064,123.5064,-9.35,70,0,1.95,CN,1737592028
269,alice springs,-23.7,133.8833,35.75,14,1,4.63,AU,1737592029
270,mili,6.0815,171.735,26.96,81,77,9.97,MH,1737592030
271,posto fiscal rolim de moura,-13.0833,-62.2667,21.46,100,100,0.46,BR,1737592031
272,funafuti,-8.5243,179.1942,26.0,94,100,0.0,TV,1737592032
273,alofi,-19.0595,-169.9187,29.94,70,75,1.54,NU,1737592033
274,weno,7.4515,151.8468,29.97,70,75,5.14,FM,1737592035
275,itaituba,-4.2761,-55.9836,22.41,99,99,0.58,BR,1737592036
276,tura,25.5198,90.2201,12.94,93,1,1.32,IN,1737591756
277,manokwari,-0.8667,134.0833,27.84,70,100,0.77,ID,1737592038
278,tazovsky,67.4667,78.7,-30.44,96,43,6.46,RU,1737592040
279,horta,38.5333,-28.6333,15.01,80,20,4.12,PT,1737592041
280,nambucca,-30.6333,152.9833,23.42,74,81,3.63,AU,1737592042
281,copala,16.65,-98.9833,25.94,68,0,2.46,MX,1737592043
282,san pedro de jujuy,-24.2313,-64.8661,25.05,94,97,0.53,AR,1737591969
283,salalah,17.0151,54.0924,21.05,23,0,4.12,OM,1737592046
284,alesund,62.4723,6.1549,2.08,94,100,4.63,NO,1737592047
285,walla walla,46.0646,-118.343,2.43,71,0,1.54,US,1737592048
286,cill airne,52.05,-9.5167,5.21,95,71,2.62,IE,1737592049
287,vadso,70.0744,29.7487,-11.91,79,100,5.14,NO,1737592050
288,kuta,-8.7233,115.1723,26.97,83,40,3.6,ID,1737592052
289,la passe,45.5549,-0.8967,8.55,91,100,4.42,FR,1737592053
290,vorgashor,67.5833,63.95,-28.61,99,100,4.21,RU,1737592055
291,veraval,20.9,70.3667,17.14,81,10,6.43,IN,1737592056
292,kirakira,-10.4544,161.9205,26.36,88,100,1.76,SB,1737591883
293,tambo,-14.8,-73.9167,4.18,94,99,3.51,PE,1737592058
294,conception bay south,47.4999,-52.9981,-9.03,68,100,7.92,CA,1737592060
295,goronyo,13.4423,5.6763,22.54,19,0,6.81,NG,1737592061
296,bamboo flat,11.7,92.7167,21.05,94,7,0.0,IN,1737592062
297,georgetown,5.4112,100.3354,26.96,91,20,3.09,MY,1737591855
298,dhidhdhoo,6.8833,73.1,27.12,74,83,2.1,MV,1737592065
299,alo,6.5486,4.2686,25.48,93,95,2.11,NG,1737592066
300,acajutla,13.5928,-89.8275,28.89,51,1,5.08,SV,1737592067
301,cam ranh,11.9214,109.1591,21.98,73,75,3.09,VN,1737592068
302,redkino,56.6475,36.2967,-2.32,83,100,5.16,RU,1737592069
303,awjilah,29.1081,21.2869,11.5,63,0,1.1,LY,1737592070
304,kathu,7.9178,98.3332,24.9,77,100,4.46,TH,1737592071
305,lorengau,-2.0226,147.2712,27.53,80,100,2.09,PG,1737592072
306,yarega,63.4354,53.5765,-20.56,99,94,2.68,RU,1737592073
307,ambodifotatra,-16.9833,49.85,26.54,75,85,1.8,MG,1737592075
308,katima mulilo,-17.5,24.2667,19.6,97,100,1.97,NA,1737592077
309,enewetak,11.3474,162.3373,27.24,78,100,9.52,MH,1737592078
310,pavlovo,55.9686,43.0912,-6.89,72,100,8.13,RU,1737592079
311,fort st. john,56.2499,-120.8529,0.94,60,100,9.77,CA,1737592081
312,guajara mirim,-10.7828,-65.3394,22.51,98,100,1.16,BR,1737592082
313,minas de marcona,-15.2119,-75.1103,17.59,79,81,5.82,PE,1737592083
314,kargasok,59.0556,80.8572,-21.39,92,100,7.12,RU,1737592084
315,kharp,66.8014,65.8081,-26.62,92,28,3.7,RU,1737591933
316,tayaman,13.2295,120.5726,26.36,75,98,3.33,PH,1737592087
317,den helder,52.9599,4.7593,4.99,93,100,3.6,NL,1737592088
318,bauta,22.9828,-82.5464,16.94,100,100,4.63,CU,1737592089
319,sharm el-sheikh,27.8518,34.305,19.08,48,0,4.12,EG,1737592091
320,biloela,-24.4167,150.5,32.98,48,4,5.15,AU,1737592092
321,petropavlovsk-kamchatsky,53.0452,158.6483,-9.67,45,0,6.0,RU,1737592093
322,zhlobin,52.8926,30.024,0.68,98,100,4.26,BY,1737592095
323,nadym,65.5333,72.5167,-26.71,97,96,7.41,RU,1737591855
324,mbandaka,0.0487,18.2603,22.65,82,89,0.5,CD,1737592097
325,yeed,4.55,43.0333,23.73,53,76,5.46,SO,1737592098
326,sabang,5.8933,95.3214,27.14,76,100,5.18,ID,1737592100
327,tamanrasset,22.785,5.5228,13.95,13,0,5.66,DZ,1737592101
328,les avirons,-21.2418,55.3394,23.05,65,0,2.06,RE,1737592103
329,mhamid,29.82,-5.72,11.22,30,32,0.29,MA,1737592104
330,daru,-9.0763,143.2092,28.15,84,100,2.35,PG,1737592105
331,tommot,58.9564,126.2925,-23.89,97,98,0.6,RU,1737592107
332,anloga,5.7947,0.8973,26.82,90,100,4.35,GH,1737592108
333,lihue,21.9789,-159.3672,24.77,53,20,6.17,US,1737592109
334,pisco,-13.7,-76.2167,21.12,88,0,9.77,PE,1737592111
335,namdrik,5.5994,168.1028,27.22,82,53,9.76,MH,1737592112
336,valdosta,30.8327,-83.2785,0.95,73,0,2.06,US,1737591941
337,tekirova,36.5017,30.5272,10.86,89,84,2.49,TR,1737592114
338,igarka,67.4667,86.5833,-31.96,88,100,7.95,RU,1737592115
339,selkirk,50.1436,-96.8845,-19.34,75,97,0.89,CA,1737592117
340,zarand,30.8127,56.564,0.88,62,3,0.62,IR,1737592119
341,elyria,41.3684,-82.1077,-10.03,54,100,7.2,US,1737592079
342,kolonia town,6.964,158.206,31.06,74,75,5.66,FM,1737592122
343,livingston,55.9029,-3.5226,2.93,95,100,1.03,GB,1737592123
344,thakhek,17.4103,104.8307,16.06,84,93,1.1,LA,1737592124
345,donggang,28.9365,114.2259,11.38,51,71,1.67,CN,1737592126
346,san pedro de ycuamandiyu,-24.0917,-57.0764,29.91,50,46,2.12,PY,1737592127
347,la ronge,55.1001,-105.2842,-14.88,85,40,1.54,CA,1737592011
348,howrah,22.5892,88.3103,15.0,100,100,1.54,IN,1737592130
349,sur,22.5667,59.5289,20.85,47,1,9.9,OM,1737592131
350,jiuquan,39.7432,98.5174,-6.35,50,77,1.16,CN,1737592132
351,mosjoen,65.836,13.1908,-10.71,92,100,0.51,NO,1737592133
352,constantia,44.1833,28.65,1.5,89,72,3.76,RO,1737592134
353,lata,40.1629,-8.3327,14.16,90,97,1.0,PT,1737592136
354,palpala,-24.2565,-65.2116,21.57,94,100,1.54,AR,1737592138
355,bandar lampung,-5.4254,105.258,23.37,95,100,1.13,ID,1737592139
356,madimba,-10.4,40.3333,26.76,81,99,4.7,TZ,1737592140
357,sheridan,44.8333,-106.9173,-3.79,89,100,11.32,US,1737592141
358,janauba,-15.8025,-43.3089,24.69,73,46,2.66,BR,1737592143
359,champerico,14.3,-91.9167,27.04,71,0,3.18,GT,1737592144
360,kongolo,-5.3833,27.0,20.55,97,97,0.33,CD,1737592145
361,puerto san jose,13.9256,-90.8244,30.03,77,0,3.09,GT,1737592147
362,chibougamau,49.9168,-74.3659,-19.21,78,0,3.6,CA,1737592148
363,midvagur,62.0511,-7.1939,3.46,87,100,6.17,FO,1737592031
364,eregli,37.5133,34.0467,3.18,97,100,0.78,TR,1737592150
365,fort mcmurray,56.7268,-111.381,-6.23,93,100,1.54,CA,1737591999
366,great bend,38.3645,-98.7648,2.07,60,75,3.09,US,1737591854
367,nabire,-3.3667,135.4833,28.16,71,88,0.65,ID,1737592153
368,pervomayskoye,43.919,46.7102,4.27,81,100,11.49,RU,1737592155
369,tionk essil,12.7856,-16.5217,21.01,65,2,5.1,SN,1737592156
370,el matama,16.7095,33.3565,22.22,17,1,5.84,SD,1737592157
371,porto velho,-8.7619,-63.9039,23.03,94,40,1.03,BR,1737592035
372,floro,61.5996,5.0328,-2.02,100,46,1.54,NO,1737592159
373,reggane,26.7158,0.1714,19.66,13,82,3.8,DZ,1737592160
374,shanhecun,44.7,127.2,-19.18,100,100,1.41,CN,1737592162
375,siwa oasis,29.2041,25.5195,13.31,52,0,1.77,EG,1737592163
376,abashiri,44.0213,144.2697,-8.84,86,20,4.12,JP,1737592164
377,vavozh,56.7751,51.931,-16.87,81,100,3.3,RU,1737592166
378,tsiombe,-25.3,45.4833,24.27,86,35,3.75,MG,1737592167
379,taroa,8.7058,171.2275,26.79,76,95,10.58,MH,1737592168
380,namibe,-15.1961,12.1522,21.67,78,97,2.4,AO,1737592169
381,aras-asan,8.8908,126.3033,25.49,89,99,1.51,PH,1737592170
382,camargo,27.6667,-105.1667,13.28,17,98,1.74,MX,1737592171
383,ambon,-3.6954,128.1814,29.57,100,40,1.54,ID,1737592172
384,khandyga,62.6667,135.6,-14.78,97,100,1.66,RU,1737592173
385,kill devil hills,36.0307,-75.676,-0.57,72,100,6.17,US,1737592175
386,as sulayyil,20.4607,45.5779,11.34,42,0,4.19,SA,1737592131
387,port isabel,26.0734,-97.2086,13.02,75,0,1.34,US,1737592080
388,nouadhibou,20.931,-17.0347,17.99,94,11,3.09,MR,1737592178
389,castillos,-34.1667,-53.8333,21.63,84,18,1.89,UY,1737592179
390,wabash,40.7978,-85.8205,-7.49,66,96,5.52,US,1737592001
391,kedrovyy,56.1667,91.8167,-13.95,71,98,8.19,RU,1737592181
392,labuan,5.2767,115.2417,26.2,100,20,0.0,MY,1737592183
393,north fond du lac,43.8114,-88.4834,-6.55,86,100,5.14,US,1737592184
394,kununurra,-15.7667,128.7333,30.99,70,92,1.03,AU,1737592185
395,ribadeo,43.5325,-7.0991,7.86,93,100,1.2,ES,1737592186
396,ha'il,27.5219,41.6907,7.01,42,0,3.09,SA,1737592187
397,makokou,0.5738,12.8642,21.27,97,56,0.4,GA,1737592188
398,mabaruma,8.2,-59.7833,23.13,85,93,1.02,GY,1737592189
399,yemva,62.59,50.8594,-14.25,82,100,4.0,RU,1737592190
400,vernon,50.2581,-119.2691,-2.36,77,69,1.79,CA,1737592191
401,hirara,24.8,125.2833,21.92,73,75,6.17,JP,1737592194
402,kauran,6.7856,124.4733,26.49,82,100,1.13,PH,1737592195
403,murghob,38.1702,73.9667,-29.3,96,8,3.29,TJ,1737592196
404,debesy,57.6529,53.8049,-18.08,93,97,2.97,RU,1737592197
405,san antonio de pale,-1.4014,5.6325,27.0,79,88,3.53,GQ,1737592198
406,nha trang,12.25,109.1833,22.0,80,60,2.24,VN,1737592199
407,arpacay,40.8487,43.3291,-11.67,81,100,1.05,TR,1737592201
408,kiunga,-6.1219,141.2906,25.88,94,100,1.49,PG,1737592202
409,de soto,34.9248,-89.9904,-0.87,34,0,4.12,US,1737592203
410,taoudenni,22.6783,-3.9836,20.22,12,61,2.22,ML,1737592128
411,pavilosta,56.8879,21.1859,1.56,91,100,3.74,LV,1737592205
412,nenjiang,49.1833,125.2167,-23.1,100,100,0.39,CN,1737592206
413,dikwa,12.024,13.9165,22.18,45,0,3.7,NG,1737592207
414,vila velha,-20.3297,-40.2925,26.97,91,0,4.63,BR,1737591871
415,darnah,32.767,22.6367,13.76,75,0,3.21,LY,1737592210
416,geraldton,-28.7667,114.6,29.23,65,33,2.57,AU,1737592211
417,rikaze,29.25,88.8833,-2.35,47,0,1.15,CN,1737592212
418,ciudad lazaro cardenas,17.9583,-102.2,24.65,68,0,2.39,MX,1737592213
419,chernyshevsk,52.5243,117.0174,-29.02,100,99,0.12,RU,1737592214
420,adjumani,3.3779,31.7909,24.08,38,72,1.94,UG,1737592215
421,sao felix do xingu,-6.6447,-51.995,21.93,98,99,0.51,BR,1737592216
422,cole harbour,44.6724,-63.4751,-11.14,56,91,5.81,CA,1737592217
423,sola,-13.8833,167.55,31.37,74,75,0.0,VU,1737592219
424,gaiman,-43.2897,-65.4929,21.11,58,10,8.93,AR,1737592220
425,chincha alta,-13.4099,-76.1323,21.06,84,100,1.56,PE,1737592221
426,suva,-18.1416,178.4415,32.71,70,40,3.6,FJ,1737591959
427,cadale,2.7603,46.3222,24.3,85,100,8.56,SO,1737592223
428,new norfolk,-42.7826,147.0587,16.07,47,97,1.41,AU,1737591932
429,maun,-19.9833,23.4167,20.98,83,0,3.6,BW,1737592225
430,alotau,-10.3069,150.4462,30.89,69,100,1.78,PG,1737592226
431,gamay,12.3854,125.2979,26.13,93,42,2.36,PH,1737592227
432,dunedin,-45.8742,170.5036,14.89,97,69,2.24,NZ,1737591763
433,kunduz,36.75,68.75,3.32,77,74,0.7,AF,1737592230
434,ciudad melchor muzquiz,27.8833,-101.5167,8.4,33,15,2.36,MX,1737592231
435,kabare,-2.4683,28.8242,16.18,93,100,0.16,CD,1737592232
436,mena,51.5217,32.2157,-1.42,97,100,4.39,UA,1737592234
437,masterton,-40.9597,175.6575,27.79,33,18,1.03,NZ,1737592164
438,talcahuano,-36.7167,-73.1167,15.82,72,0,3.6,CL,1737592215
439,fortaleza,-3.7227,-38.5247,28.45,83,20,3.09,BR,1737592059
440,stephenville,32.2207,-98.2023,8.41,28,0,3.09,US,1737592072
441,cockburn town,21.4612,-71.1419,25.59,85,9,6.52,TC,1737591756
442,fairwood,47.4484,-122.1573,5.8,66,75,4.63,US,1737592241
443,west livingston,30.6983,-95.0019,0.81,73,96,3.14,US,1737592242
444,guerrero negro,27.9769,-114.0611,18.18,28,100,3.78,MX,1737591879
445,okhotsk,59.3833,143.3,-22.56,80,0,4.69,RU,1737592006
446,nantucket,41.2835,-70.0995,-4.92,63,75,3.09,US,1737592246
447,kamaishi,39.2667,141.8833,5.84,68,4,2.56,JP,1737592247
448,san jose de jachal,-30.2406,-68.7469,28.9,31,1,3.47,AR,1737592249
449,el dorado,38.7666,-120.5177,16.21,30,4,0.45,US,1737592251
450,katsuura,35.1333,140.3,13.27,57,100,3.75,JP,1737592056
451,puerto aysen,-45.4,-72.7,12.04,99,100,1.67,CL,1737591852
452,brookings,44.3114,-96.7984,-8.79,73,100,5.14,US,1737592254
453,ghat,24.9647,10.1728,12.89,27,0,3.29,LY,1737592255
454,coquimbo,-29.9533,-71.3436,17.85,77,0,4.12,CL,1737591987
455,lae,-6.7221,146.9847,30.37,57,88,0.47,PG,1737592257
456,ust-tsilma,65.441,52.1498,-18.37,97,100,2.4,RU,1737592259
457,kalmunai,7.4167,81.8167,25.06,78,100,3.9,LK,1737592260
458,arraial do cabo,-22.9661,-42.0278,24.98,100,40,1.03,BR,1737591608
459,xinyuan,37.3,99.0,-10.25,50,100,1.97,CN,1737592262
460,pompeia,-22.1086,-50.1717,24.44,69,100,0.39,BR,1737592263
461,bamiantong,44.9333,130.5333,-12.87,92,97,1.72,CN,1737592264
462,plymstock,50.36,-4.0905,4.3,68,92,4.14,GB,1737592265
463,doctor juan leon mallorquin,-25.4,-55.2667,26.33,64,0,2.01,PY,1737592266
464,hilo,19.7297,-155.09,28.38,64,0,4.12,US,1737592267
465,karasburg,-28.0167,18.75,21.91,30,5,3.5,NA,1737592268
466,pandan,14.0453,124.1694,26.36,90,78,5.29,PH,1737592270
467,alta,69.9689,23.2717,-12.41,72,40,1.54,NO,1737592064
468,port alfred,-33.5906,26.891,20.66,98,67,0.89,ZA,1737591968
469,gajraula,28.85,78.2333,13.45,45,57,2.75,IN,1737592273
470,carutapera,-1.195,-46.02,24.5,93,7,2.22,BR,1737591848
471,musoma,-1.5,33.8,19.42,80,100,3.67,TZ,1737592276
472,lompoc,34.6391,-120.4579,23.96,17,0,3.6,US,1737591806
473,nagqu,31.5,92.0,-10.05,43,5,1.37,CN,1737592280
474,buala,-8.145,159.5921,27.96,79,100,2.13,SB,1737592281
475,hotan,37.0997,79.9269,-4.1,50,0,0.8,CN,1737592282
476,bugembe,0.4797,33.2344,19.49,86,97,0.97,UG,1737592284
477,zhanibek,49.4167,46.85,-8.65,53,99,6.49,KZ,1737592285
478,lospalos,-8.5186,127.0025,24.55,83,100,0.63,TL,1737591838
479,rundu,-17.9333,19.7667,18.67,98,100,1.76,NA,1737592288
480,mahdia,35.5047,11.0622,15.11,43,100,10.59,TN,1737592290
481,minas de matahambre,22.5887,-83.9447,18.83,81,100,5.29,CU,1737592291
482,kolonia,50.9333,6.95,4.58,94,75,4.12,DE,1737592204
483,acarau,-2.8856,-40.12,26.18,81,0,5.75,BR,1737591782
484,zdvinsk,54.7021,78.661,-21.46,92,100,6.47,RU,1737592295
485,altai,46.3722,96.2583,-11.23,48,1,1.78,MN,1737592296
486,nova xavantina,-14.6667,-52.35,23.61,91,0,1.0,BR,1737592298
487,majie,25.0333,102.6361,7.99,87,40,6.0,CN,1737592299
488,laguna,38.421,-121.4238,16.23,44,0,0.0,US,1737592157
489,scarborough,54.2797,-0.4044,2.03,49,9,2.89,GB,1737592300
490,kijang,35.2442,129.2139,0.85,42,5,1.19,KR,1737592303
491,snyder,32.7179,-100.9176,9.19,14,0,3.6,US,1737592304
492,korla,41.7597,86.1469,-8.45,87,57,2.84,CN,1737592305
493,huntsville,34.7304,-86.5861,-2.11,46,0,2.24,US,1737592171
494,manicore,-5.8092,-61.3003,22.37,95,95,0.55,BR,1737592308
495,utiel,39.5667,-1.2,10.03,84,84,4.49,ES,1737592310
496,hammerfest,70.6634,23.6821,-2.75,80,100,4.63,NO,1737592311
497,birao,10.2849,22.7882,23.43,17,38,4.19,CF,1737592313
498,madang,-5.2246,145.7966,29.12,71,97,1.96,PG,1737592314
499,amuntai,-2.4177,115.2494,23.21,99,100,0.45,ID,1737592014
500,magherafelt,54.7536,-6.6066,2.99,94,100,2.81,GB,1737592317
501,muar,2.0442,102.5689,24.75,87,100,3.53,MY,1737592318
502,slovenske konjice,46.3367,15.4258,6.8,93,100,1.79,SI,1737592319
503,imbituba,-28.24,-48.6703,22.66,88,7,1.9,BR,1737592320
504,acapulco de juarez,16.8634,-99.8901,27.9,74,40,3.6,MX,1737592109
505,menongue,-14.6585,17.691,18.1,70,100,1.24,AO,1737592322
506,extrema,-22.8547,-46.3183,19.83,95,100,1.99,BR,1737592290
507,forrest city,35.0081,-90.7898,-2.72,42,50,3.13,US,1737592190
508,chadron,42.8294,-102.9999,-2.18,75,100,8.75,US,1737592325
509,pulandian,39.3953,121.9669,-1.17,30,0,0.56,CN,1737592327
510,dalby,-27.1833,151.2667,36.52,26,91,6.87,AU,1737592328
511,vila franca do campo,37.7167,-25.4333,11.23,77,100,1.25,PT,1737592330
512,luderitz,-26.6481,15.1594,16.41,96,6,1.18,NA,1737592331
513,tougue,11.4667,-11.6,20.59,24,11,0.21,GN,1737592332
514,bazarak,35.3129,69.5152,-12.62,85,30,7.41,AF,1737592334
515,saldanha,-33.0117,17.9442,17.43,97,100,2.57,ZA,1737592335
516,mae hong son,19.3003,97.9685,14.08,100,100,0.0,TH,1737592336
517,labin,45.095,14.1197,9.41,92,100,4.88,HR,1737592337
518,lloydminster,53.2835,-110.0016,-6.88,86,100,6.69,CA,1737592339
519,aguada de pasajeros,22.385,-80.8508,20.72,93,68,2.63,CU,1737592340
520,san jose del guaviare,2.5729,-72.6459,26.53,51,45,1.46,CO,1737592341
521,san mariano,7.5,126.0,26.11,77,85,1.95,PH,1737592342
522,jwaneng,-24.6004,24.7303,19.4,37,0,3.77,BW,1737592344
523,paka,4.6374,103.4368,23.96,94,40,0.0,MY,1737592345
524,nova sintra,14.8667,-24.7167,22.34,72,98,12.48,CV,1737592288
525,guatrache,-37.6678,-63.5302,28.93,13,0,4.98,AR,1737592347
526,puerto escondido,15.85,-97.0667,27.46,78,20,0.0,MX,1737592348
527,sokcho,38.2083,128.5911,4.34,33,0,4.12,KR,1737592349
528,jaraiz de la vera,40.0601,-5.7543,11.19,96,100,0.45,ES,1737592350
529,elliot lake,46.3834,-82.6331,-10.56,92,100,3.8,CA,1737592351
530,san julian,21.0167,-102.1667,15.84,24,0,3.64,MX,1737592353
531,puerto baquerizo moreno,-0.9,-89.6,24.25,80,34,4.43,EC,1737592146
532,alupka,44.4167,34.05,8.63,89,100,0.92,UA,1737592355
533,sungai raya,0.7,108.9,23.91,95,100,1.33,ID,1737592356
534,uvira,-3.4067,29.1458,22.29,87,100,0.3,CD,1737592357
535,luwuk,-0.9516,122.7875,27.13,68,100,1.41,ID,1737592358
536,kuala tungkal,-0.8167,103.4667,23.89,93,100,1.25,ID,1737592360
537,hovd,48.0056,91.6419,-14.24,80,100,1.15,MN,1737592361
538,pitimbu,-7.4706,-34.8086,27.26,66,81,4.47,BR,1737592362
539,mtsensk,53.2766,36.5733,-2.63,41,100,6.09,RU,1737592363
540,taybad,34.74,60.7756,0.72,80,6,3.85,IR,1737592365
541,cabedelo,-6.9811,-34.8339,27.37,63,91,5.0,BR,1737592366
542,nzega,-2.479,29.5564,13.13,93,100,1.28,RW,1737592367
543,pulaski,34.7668,-92.3001,2.06,39,0,3.09,US,1737592090
544,tabou,4.423,-7.3528,26.57,84,94,3.32,CI,1737592370
545,muritiba,-12.9167,-39.25,22.63,96,16,1.17,BR,1737592371
546,indian harbour beach,28.1489,-80.5884,10.04,90,100,9.77,US,1737592373
547,saint-pierre,-21.3393,55.4781,24.82,65,0,2.06,RE,1737592246
548,baiyin,36.5583,104.2081,-0.36,55,100,0.38,CN,1737592375
549,galliano,29.4422,-90.2992,-4.0,93,0,0.0,US,1737592376
550,palmer,42.1584,-72.3287,-9.75,48,75,2.06,US,1737592377
551,laojunmiao,39.8333,97.7333,-2.81,31,19,2.91,CN,1737592359
552,moab,38.5733,-109.5498,2.03,27,83,4.92,US,1737592381
553,haicheng,40.8516,122.7475,-3.64,38,6,1.01,CN,1737592382
554,letterkenny,54.95,-7.7333,3.25,91,100,1.71,IE,1737592383
555,barcelos,41.5388,-8.6151,10.78,94,77,2.1,PT,1737592190
556,araxa,-19.5933,-46.9406,20.86,89,98,1.36,BR,1737592098
557,polyarnyy,69.1989,33.4478,-13.89,95,100,3.3,RU,1737592387
558,fada,7.25,4.0667,23.4,93,100,0.86,NG,1737592388
559,caleta de carquin,-11.0925,-77.6267,21.4,85,77,4.38,PE,1737592390
560,aral,40.5156,81.2636,-5.23,47,0,0.95,CN,1737592391
561,noumea,-22.2763,166.4572,28.35,65,100,3.34,NC,1737592263
562,qarauyl,48.9451,79.255,-14.74,75,92,9.13,KZ,1737592393
563,kem',64.9555,34.5793,-8.84,96,100,1.44,RU,1737592394
564,pizarro,4.9533,-77.366,25.07,87,14,1.83,CO,1737592396
565,bilgoraj,50.5411,22.722,1.24,92,100,3.7,PL,1737592132
566,maceio,-9.6658,-35.7353,25.69,88,20,4.12,BR,1737592099
567,holualoa,19.6228,-155.9522,24.91,67,40,5.14,US,1737592400
568,marka,1.7159,44.7717,24.1,82,53,6.24,SO,1737592198
569,celestun,20.8667,-90.4,20.32,69,42,5.54,MX,1737592403
570,dul'durga,50.6761,113.5931,-22.03,98,16,0.49,RU,1737592404
571,fabens,31.5023,-106.1586,8.55,19,100,0.89,US,1737592405
572,sidi ifni,29.3797,-10.173,15.43,69,0,2.07,MA,1737592406
573,phon,15.816,102.5998,21.3,48,100,1.32,TH,1737592408
574,wenling,28.3669,121.36,13.64,80,74,2.56,CN,1737592409
